,City,Latitude,Longitude,Temperature,% Humidity,% Cloudiness,Wind Speed (mph)
0,umm lajj,25.0213,37.2685,75.4,61,0,6.44
1,atuona,-9.8,-139.0333,79.03,78,29,13.44
2,busselton,-33.65,115.3333,69.33,53,0,10.65
3,half moon bay,37.4636,-122.4286,49.5,62,0,28.77
4,lincoln,40.8,-96.667,55.67,43,2,3.0
5,vuktyl,63.8567,57.3094,37.22,99,100,9.46
6,ilulissat,69.2167,-51.1,19.63,83,100,2.64
7,eravur,7.7733,81.6095,79.74,79,99,3.78
8,hilo,19.7297,-155.09,74.1,90,100,3.0
9,oksfjord,70.2396,22.3479,33.87,97,100,11.7
10,yumen,40.2833,97.2,45.57,12,3,8.7
11,albany,42.6001,-73.9662,51.55,55,92,4.36
12,isangel,-19.55,169.2667,84.54,69,7,11.97
13,fano,43.8204,13.0121,49.37,68,49,5.23
14,kavieng,-2.5744,150.7967,85.62,64,55,8.59
15,ushuaia,-54.8,-68.3,40.66,81,0,2.3
16,sao filipe,14.8961,-24.4956,70.34,74,100,8.88
17,batagay-alyta,67.8006,130.4114,10.47,69,87,3.09
18,kahului,20.8947,-156.47,80.89,69,40,23.02
19,parvatsar,26.8833,74.7667,80.29,21,100,9.95
20,cape town,-33.9258,18.4232,66.56,58,0,3.44
21,yellowknife,62.456,-114.3525,14.52,57,20,17.27
22,lorengau,-2.0226,147.2712,85.68,65,8,9.64
23,otane,-39.8833,176.6333,72.01,56,100,3.44
24,panji,-7.7253,114.0995,84.06,53,14,1.43
25,abilene,32.4487,-99.7331,76.39,21,0,4.61
26,margate,51.3813,1.3862,48.45,82,100,1.99
27,grants,35.1473,-107.8514,61.03,20,0,17.27
28,harlingen,26.1906,-97.6961,77.49,91,76,15.68
29,grandview,38.8858,-94.533,56.39,67,0,7.92
30,xining,36.6167,101.7667,44.01,31,24,4.92
31,proletarsk,46.7031,41.7192,50.56,78,47,11.52
32,vila franca do campo,37.7167,-25.4333,61.21,96,90,8.23
33,mataura,-46.1927,168.8643,55.47,53,69,8.75
34,punta arenas,-53.15,-70.9167,42.91,70,0,16.11
35,micheweni,-4.9667,39.8333,79.97,82,80,9.95
36,metro,-5.1131,105.3067,82.31,70,100,2.39
37,port alfred,-33.5906,26.891,66.18,89,100,3.0
38,hobart,-42.8794,147.3294,62.96,55,20,11.5
39,kamen-na-obi,53.7884,81.3423,34.14,58,2,9.89
40,jamestown,42.097,-79.2353,52.93,70,100,9.22
41,georgetown,5.4112,100.3354,80.42,87,20,5.01
42,marsh harbour,26.5412,-77.0636,71.06,62,0,17.72
43,mar del plata,-38.0023,-57.5575,56.03,90,0,5.99
44,bluff,-46.6,168.3333,55.8,60,99,23.22
45,sola,-13.8833,167.55,82.38,69,8,5.95
46,pathein,16.7833,94.7333,87.08,54,3,10.36
47,nemuro,43.3236,145.575,43.27,83,31,13.13
48,oranjestad,12.524,-70.027,80.55,78,20,21.85
49,nikolskoye,59.7035,30.7861,31.06,93,100,3.04
50,puerto ayora,-0.7393,-90.3518,77.56,95,80,4.0
51,pinega,64.7001,43.3936,31.3,97,99,5.06
52,hofn,64.2539,-15.2082,34.36,93,100,14.54
53,rikitea,-23.1203,-134.9692,79.03,72,2,15.84
54,sur,22.5667,59.5289,83.01,36,0,4.0
55,lazaro cardenas,17.9583,-102.2,76.26,85,43,6.31
56,port elizabeth,-33.918,25.5701,66.31,87,0,8.05
57,qaqortoq,60.7167,-46.0333,32.16,52,97,14.58
58,erdenet,49.0333,104.0833,27.03,66,17,3.85
59,esperance,-33.8667,121.9,67.84,81,77,18.23
60,aden,12.7794,45.0367,79.95,76,9,5.39
61,chifeng,42.2683,118.9636,47.3,22,3,12.44
62,bredasdorp,-34.5322,20.0403,64.13,72,1,2.86
63,atbasar,51.8,68.3333,38.86,61,100,15.26
64,upernavik,72.7868,-56.1549,13.89,95,100,8.66
65,gat,31.61,34.7642,53.76,100,10,6.82
66,saint george,37.1041,-113.5841,73.99,18,0,34.52
67,goderich,43.7501,-81.7165,46.72,87,100,8.05
68,saskylakh,71.9167,114.0833,-0.83,93,96,1.92
69,acarau,-2.8856,-40.12,77.74,86,100,7.94
70,bollnas,61.3482,16.3946,30.54,86,58,5.59
71,vaini,-21.2,-175.2,86.16,74,75,16.11
72,tiksi,71.6872,128.8694,0.75,90,99,5.86
73,bairnsdale,-37.8333,147.6167,64.06,52,56,5.01
74,agadez,19.75,10.25,81.97,7,0,6.73
75,westport,41.1415,-73.3579,47.79,65,100,5.01
76,maldonado,-34.6667,-54.9167,63.79,94,47,7.47
77,longyearbyen,78.2186,15.6401,4.84,72,0,3.44
78,chuy,-33.6971,-53.4616,65.79,94,0,4.56
79,avarua,-21.2078,-159.775,80.65,83,20,5.75
80,turayf,31.6725,38.6637,52.05,82,0,13.8
81,doka,13.5167,35.7667,84.15,42,95,13.49
82,chokurdakh,70.6333,147.9167,9.7,87,100,11.18
83,hasaki,35.7333,140.8333,73.8,75,0,14.94
84,pundaguitan,6.3711,126.1689,83.39,73,90,11.79
85,geraldton,-28.7667,114.6,64.81,68,0,6.91
86,prainha,-1.8,-53.48,74.25,97,90,2.55
87,codrington,-38.2667,141.9667,61.36,48,65,9.69
88,laguna,38.421,-121.4238,58.57,30,40,11.5
89,kapaa,22.0752,-159.319,80.47,72,28,5.01
90,sitka,57.0531,-135.33,32.54,40,49,23.04
91,torbay,47.6666,-52.7314,34.25,91,100,21.85
92,castro,-24.7911,-50.0119,62.96,97,98,2.73
93,kiunga,-6.1219,141.2906,88.7,61,99,2.35
94,hermanus,-34.4187,19.2345,66.33,63,77,6.73
95,airai,-8.9266,125.4092,76.35,37,16,1.39
96,mahebourg,-20.4081,57.7,77.29,83,40,11.5
97,west bay,19.3667,-81.4167,79.48,78,20,9.22
98,nacala,-14.5428,40.6728,72.77,97,12,5.86
99,dalmatovo,56.26,62.9362,33.67,88,100,7.94
100,tasiilaq,65.6145,-37.6368,12.25,84,100,4.56
101,hami,42.8,93.45,52.18,12,5,20.02
102,severo-kurilsk,50.6789,156.125,31.48,79,33,5.95
103,celestun,20.8667,-90.4,85.48,51,0,15.5
104,shimoda,34.6667,138.95,71.96,65,0,10.2
105,breves,-1.6822,-50.4803,74.43,97,100,6.46
106,preobrazheniye,42.9019,133.9064,47.88,81,100,3.36
107,suntar,62.1444,117.6319,28.92,82,95,3.89
108,san patricio,28.017,-97.5169,74.35,91,100,12.64
109,saldanha,-33.0117,17.9442,66.02,56,0,5.97
110,singarayakonda,15.25,80.0333,82.45,77,60,9.69
111,tuktoyaktuk,69.4541,-133.0374,3.2,72,0,4.61
112,alto piquiri,-24.0281,-53.4406,72.21,90,83,11.23
113,gizo,-8.103,156.8419,84.15,70,80,3.58
114,ilo,-17.6394,-71.3375,65.73,80,48,7.36
115,tambo,-14.8,-73.9167,36.14,61,5,3.51
116,pochutla,15.7432,-96.4661,81.82,70,16,5.84
117,sao felix do xingu,-6.6447,-51.995,72.34,98,35,1.23
118,cockburn town,21.4612,-71.1419,76.41,79,99,27.81
119,yulara,-25.2406,130.9889,91.24,21,53,11.5
120,pevek,69.7008,170.3133,-6.66,85,5,7.45
121,new norfolk,-42.7826,147.0587,60.15,51,68,3.0
122,constitucion,-35.3333,-72.4167,53.98,68,100,9.31
123,constanza,47.6603,9.1758,40.06,77,98,1.99
124,victoria,22.2855,114.1577,79.14,78,0,4.0
125,hun,29.1268,15.9477,57.22,52,1,10.58
126,ixtapa,20.7,-105.2,75.22,88,2,4.0
127,verkhnyaya inta,65.9811,60.3094,35.82,100,100,6.11
128,barrow,71.2906,-156.7887,27.07,87,100,10.51
129,coquimbo,-29.9533,-71.3436,55.13,94,0,4.61
130,broken hill,-31.95,141.4333,73.11,46,3,11.5
131,la tuque,47.4334,-72.7824,44.85,57,100,5.75
132,grand haven,43.0631,-86.2284,43.03,70,91,3.29
133,cabo san lucas,22.8909,-109.9124,71.65,64,0,10.0
134,khatanga,71.9667,102.5,-6.12,99,100,0.29
135,denizli,37.8402,29.0698,40.28,88,56,3.33
136,faya,18.3851,42.4509,59.52,48,0,3.83
137,santa rosa,14.3122,121.1114,83.3,73,100,2.59
138,souillac,-20.5167,57.5167,77.38,83,40,11.5
139,hamilton,39.1834,-84.5333,57.06,92,100,8.05
140,ust-kuyga,70.0167,135.6,10.15,81,100,4.56
141,stony plain,53.5334,-114.0021,24.58,51,40,21.85
142,buchanan,5.8808,-10.0467,79.48,89,90,5.01
143,opunake,-39.4556,173.8583,70.45,70,100,12.93
144,gamba,-2.65,10.0,77.05,91,100,4.59
145,dikson,73.5069,80.5464,13.57,91,100,23.96
146,havoysund,70.9963,24.6622,34.03,89,100,21.27
147,caravelas,-17.7125,-39.2481,75.63,84,0,2.17
148,vila velha,-20.3297,-40.2925,75.94,91,40,2.3
149,bonthe,7.5264,-12.505,78.28,90,99,5.14
150,beloha,-25.1667,45.05,71.38,85,100,12.55
151,bambous virieux,-20.3428,57.7575,77.25,83,40,11.5
152,nadym,65.5333,72.5167,34.54,100,100,10.87
153,lompoc,34.6391,-120.4579,52.52,65,0,25.32
154,innisfail,-17.5333,146.0333,81.1,85,72,10.07
155,vestmannaeyjar,63.4427,-20.2734,41.22,72,100,21.39
156,hithadhoo,-0.6,73.0833,83.28,68,15,11.54
157,ponta do sol,32.6667,-17.1,59.59,72,49,12.15
158,alofi,-19.0595,-169.9187,84.09,74,52,3.44
159,shubarkuduk,49.1447,56.4872,46.22,91,0,5.03
160,vostok,46.4856,135.8833,35.49,99,100,2.82
161,lerwick,60.1545,-1.1494,42.8,73,100,19.51
162,awbari,26.5921,12.7805,68.16,25,88,15.08
163,sinegorye,62.0788,150.477,5.76,84,51,3.6
164,salalah,17.0151,54.0924,77.58,65,0,1.95
165,provideniya,64.3833,-173.3,30.31,80,100,18.01
166,lebu,-37.6167,-73.65,50.86,86,57,2.77
167,sechura,-5.5569,-80.8222,70.61,80,77,14.58
168,pangai,-19.8,-174.35,86.11,66,40,9.22
169,osmena,10.5208,119.9258,77.54,84,100,14.58
170,marawi,7.9986,124.2928,75.22,77,100,5.86
171,teruel,40.6667,-0.6667,43.63,69,95,2.86
172,amahai,-3.3333,128.9167,82.51,74,100,1.52
173,plettenberg bay,-34.0527,23.3716,67.48,63,0,4.68
174,gazanjyk,39.2446,55.5154,63.84,56,10,10.18
175,buckingham,51.9997,-0.9878,50.05,62,100,58.0
176,qaanaaq,77.484,-69.3632,-8.34,68,26,6.11
177,dunedin,-45.8742,170.5036,56.8,65,100,8.01
178,campamento,14.55,-86.65,72.52,77,76,5.88
179,durg,21.1833,81.2833,80.78,36,68,12.3
180,ribeira grande,38.5167,-28.7,60.64,92,100,11.12
181,gweta,-20.1833,25.2333,68.58,72,3,8.55
182,ancud,-41.8697,-73.8203,46.22,84,12,6.58
183,china,25.7,-99.2333,82.31,60,15,18.52
184,malpe,13.35,74.7167,81.7,84,100,3.51
185,kayes,14.0,-11.0,91.94,10,8,4.47
186,aklavik,68.2191,-135.0107,16.66,85,10,9.04
187,saint-philippe,-21.3585,55.7679,72.64,86,94,17.16
188,poum,-20.2333,164.0167,79.88,75,26,13.33
189,tromso,69.6496,18.957,32.38,75,100,5.75
190,kralendijk,12.15,-68.2667,79.0,87,99,21.52
191,norman wells,65.282,-126.8329,17.64,32,20,8.05
192,arlit,18.7369,7.3853,83.79,8,7,5.03
193,padang,-0.9492,100.3543,78.85,67,56,1.1
194,kampong cham,11.9934,105.4635,86.83,60,43,9.82
195,samarai,-10.6167,150.6667,85.33,68,98,13.53
196,kigoma,-4.8769,29.6267,72.75,81,100,4.7
197,arraial do cabo,-22.9661,-42.0278,76.71,82,92,13.22
198,babu,24.4167,111.5167,81.36,55,0,4.74
199,dzilam gonzalez,21.2833,-88.9333,79.41,62,4,11.83
200,khandyga,62.6667,135.6,27.86,80,40,2.62
201,carnarvon,-24.8667,113.6333,69.87,52,0,17.27
202,wschowa,51.807,16.3166,33.46,85,10,3.47
203,baft,29.234,56.6057,53.13,16,0,4.94
204,ketchikan,55.3422,-131.6461,35.58,88,100,7.18
205,komsomolskiy,40.4272,71.7189,66.92,55,100,4.61
206,kavaratti,10.5669,72.642,84.24,67,100,6.33
207,halifax,44.6453,-63.5724,43.29,69,37,4.61
208,cidreira,-30.1811,-50.2056,68.94,94,74,9.4
209,leningradskiy,69.3833,178.4167,-2.54,81,14,3.85
210,shihezi,44.3,86.0333,52.47,21,100,10.2
211,mujiayingzi,42.1167,118.7833,45.57,23,3,13.2
212,kaitangata,-46.2817,169.8464,54.77,61,90,10.4
213,olafsvik,64.8945,-23.7142,33.42,80,74,23.69
214,sobolevo,54.4299,31.8996,36.36,75,100,8.95
215,khorixas,-20.3667,14.9667,75.16,32,92,2.91
216,solnechnyy,50.7214,136.6319,29.3,81,100,8.97
217,grand gaube,-20.0064,57.6608,74.37,87,29,3.0
218,smolenka,52.1352,113.4974,33.87,51,22,4.47
219,palana,59.1167,159.9667,17.78,84,100,12.3
220,colares,38.7992,-9.4469,56.12,86,26,15.01
221,klaksvik,62.2266,-6.589,41.92,78,100,25.97
222,provost,52.3501,-110.2683,27.05,60,100,14.7
223,tanout,14.9709,8.8879,80.74,9,1,7.36
224,tual,-5.6667,132.75,83.19,72,100,3.18
225,bethel,41.3712,-73.414,48.63,63,100,3.0
226,biak,-0.9131,122.8766,84.09,60,66,3.42
227,san quintin,30.4833,-115.95,60.24,75,0,14.47
228,evensk,61.95,159.2333,19.53,60,5,10.27
229,seoul,37.5683,126.9778,69.26,67,75,8.05
230,swan hill,-35.3378,143.5544,67.93,31,17,10.04
231,ahipara,-35.1667,173.1667,62.15,88,100,11.56
232,andros,37.8333,24.9333,54.16,61,0,9.13
233,svetlogorsk,52.6333,29.7333,35.04,75,73,10.13
234,kholtoson,50.2981,103.3097,27.99,57,100,4.07
235,barkly west,-28.5354,24.5215,52.88,80,8,5.48
236,suixi,33.8907,116.7747,71.85,62,95,16.13
237,morada nova,-5.1067,-38.3725,72.95,98,83,3.74
238,bilibino,68.0546,166.4372,-0.4,69,17,2.44
239,nara,34.6851,135.8049,71.28,42,16,3.02
240,youkounkoun,12.5333,-13.1333,80.24,43,19,8.3
241,kondapalle,16.6167,80.5333,79.65,74,56,5.12
242,araouane,18.9048,-3.5265,80.89,5,32,9.06
243,carutapera,-1.195,-46.02,75.88,94,100,6.67
244,chipata,-13.6333,32.65,61.03,98,83,3.98
245,llanes,43.4198,-4.7549,56.89,83,100,5.84
246,bathsheba,13.2167,-59.5167,79.41,78,75,19.57
247,tautira,-17.7333,-149.15,81.59,74,23,14.88
248,aykhal,66.0,111.5,21.02,81,24,2.37
249,yar-sale,66.8333,70.8333,34.48,100,100,11.5
250,clyde river,70.4692,-68.5914,-9.17,84,0,6.91
251,bengkulu,-3.8004,102.2655,81.39,73,62,1.99
252,byron bay,-28.65,153.6167,77.0,71,40,17.45
253,kentau,43.5206,68.5094,61.07,66,5,13.15
254,krasnoselkup,65.7,82.4667,33.22,100,100,7.34
255,namibe,-15.1961,12.1522,76.8,73,83,10.07
256,pergamino,-33.89,-60.5736,55.18,61,0,6.69
257,yerbogachen,61.2767,108.0108,28.78,83,20,1.48
258,cayenne,4.9333,-52.3333,82.09,1,75,8.05
259,medicine hat,50.0501,-110.6683,33.17,36,75,11.5
260,butaritari,3.0707,172.7902,81.21,74,69,9.66
261,manggar,-2.8833,108.2667,84.4,67,100,1.52
262,ca mau,9.1769,105.15,84.31,67,20,4.12
263,abu samrah,35.3029,37.1841,52.79,69,55,26.84
264,banjar,-8.19,114.9675,86.72,53,87,0.09
265,bosaso,11.2842,49.1816,80.44,60,0,9.55
266,the valley,18.217,-63.0578,76.86,76,4,15.05
267,saint-joseph,-21.3667,55.6167,71.64,85,70,17.27
268,balkanabat,39.5108,54.3671,66.88,48,5,13.91
269,nichinan,31.6,131.3667,65.88,83,51,0.85
270,luderitz,-26.6481,15.1594,67.32,53,0,3.51
271,kidal,18.4411,1.4078,82.71,5,0,10.16
272,huilong,31.8111,121.655,68.74,80,56,9.75
273,nantucket,41.2835,-70.0995,43.25,83,13,18.48
274,vinh,18.6667,105.6667,79.34,75,19,0.92
275,kodiak,57.79,-152.4072,42.76,56,100,0.69
276,tuatapere,-46.1333,167.6833,56.44,53,45,9.46
277,pacific grove,36.6177,-121.9166,49.53,67,1,18.01
278,te anau,-45.4167,167.7167,55.65,61,51,3.42
279,ciudad bolivar,8.1222,-63.5497,84.69,51,47,15.28
280,belyy,55.8402,32.9419,34.32,86,100,5.1
281,mbour,14.422,-16.9638,65.25,79,17,13.71
282,lata,40.1629,-8.3327,51.93,97,100,4.74
283,rincon,32.296,-81.2354,62.38,74,87,6.67
284,east london,-33.0153,27.9116,64.47,93,100,6.98
285,colac,-38.3333,143.5833,56.89,44,48,5.53
286,namatanai,-3.6667,152.4333,85.75,61,25,5.82
287,cabra,37.4725,-4.4421,50.5,90,90,1.97
288,husavik,66.0449,-17.3389,28.24,93,93,6.06
289,agbannawag,15.6792,121.0833,90.01,50,99,2.3
290,progreso,21.2833,-89.6667,87.12,56,4,17.18
291,tucuman,-26.8241,-65.2226,66.2,94,100,3.44
292,ghanzi,-21.5667,21.7833,67.95,65,9,8.21
293,hereford,52.0568,-2.7148,48.11,81,75,3.47
294,puerto escondido,15.85,-97.0667,81.37,76,78,4.61
295,dwarka,22.2394,68.9678,80.04,82,98,9.19
296,laela,-8.5667,32.05,59.09,97,62,4.54
297,nishihara,26.1842,127.7558,78.08,73,40,9.22
298,bata,1.8639,9.7658,76.86,100,40,2.3
299,san cristobal,7.7669,-72.225,73.58,88,94,1.61
300,urbano santos,-3.2078,-43.4036,74.1,98,100,3.09
301,maraa,-1.8333,-65.3667,73.53,98,100,2.89
302,nayoro,44.3506,142.4578,58.71,59,99,8.23
303,bemidji,47.4736,-94.8803,37.51,81,0,4.61
304,magadan,59.5667,150.8,22.53,54,0,3.2
305,redlands,34.0556,-117.1825,58.96,69,71,3.0
306,verkhnevilyuysk,63.4453,120.3167,24.48,85,100,2.98
307,necochea,-38.5473,-58.7368,52.18,86,12,10.56
308,alta,69.9689,23.2717,33.06,86,100,24.16
309,waipawa,-41.4122,175.5153,63.12,71,100,11.56
310,flinders,-34.5833,150.8552,70.03,69,100,7.0
311,chara,56.9064,118.2631,19.83,68,34,2.8
312,chumikan,54.7183,135.315,28.36,92,100,18.45
313,gao,16.6362,1.637,81.0,10,19,5.79
314,baneh,35.9975,45.8853,52.83,30,32,7.65
315,mecca,21.4267,39.8261,79.66,33,0,1.21
316,murgab,37.4966,61.9714,57.07,77,5,4.61
317,tura,25.5198,90.2201,73.06,84,100,3.24
318,bobota,47.3833,22.7667,33.08,76,84,2.66
319,kununurra,-15.7667,128.7333,96.78,21,76,5.75
320,praia da vitoria,38.7333,-27.0667,61.05,94,75,8.72
321,siyabuswa,-25.1132,29.0445,60.26,85,4,1.77
322,vardo,70.3705,31.1107,34.36,83,95,13.6
323,chornobay,49.6708,32.3239,38.88,88,100,22.53
324,shingu,33.7333,135.9833,69.71,64,0,6.22
325,kloulklubed,7.0419,134.2556,83.17,83,34,23.6
326,jiaojiang,28.6803,121.4428,78.01,71,21,5.66
327,tongliao,43.6125,122.2653,50.97,23,25,9.31
328,tarsus,36.9188,34.8784,51.67,63,0,2.68
329,iqaluit,63.7506,-68.5145,9.7,92,75,4.61
330,deputatskiy,69.3,139.9,12.96,69,100,1.66
331,diego de almagro,-26.3667,-70.05,56.34,55,0,0.78
332,pisco,-13.7,-76.2167,64.45,82,0,17.27
333,cherskiy,68.75,161.3,7.14,74,9,7.94
334,sambava,-14.2667,50.1667,74.44,87,39,12.35
335,cedar city,37.6775,-113.0619,56.39,30,58,23.31
336,bhatgaon,21.15,81.7,80.78,69,30,2.3
337,port-gentil,-0.7193,8.7815,80.37,84,99,8.59
338,arcachon,44.5875,-1.0519,51.85,82,0,3.44
339,nanortalik,60.1432,-45.2371,31.1,73,84,10.36
340,port augusta,-32.5,137.7667,86.11,27,12,9.95
341,wildomar,33.5989,-117.28,58.08,65,0,14.97
342,telimele,10.9167,-13.3333,68.88,77,27,2.33
343,belmonte,-15.8631,-38.8828,78.24,75,73,3.91
344,dudinka,69.4058,86.1778,15.62,92,100,14.88
345,flin flon,54.7682,-101.865,24.13,91,100,9.48
346,kahramanmaras,38.0,37.0,37.89,84,93,5.03
347,tocopilla,-22.092,-70.1979,64.27,69,27,7.7
348,kisangani,0.5167,25.2,67.33,93,45,0.96
349,gunnedah,-30.9833,150.25,77.74,48,5,7.81
350,alice springs,-23.7,133.8833,94.55,16,6,16.11
351,lavrentiya,65.5833,-171.0,28.13,88,100,12.08
352,kindu,-2.95,25.95,68.05,99,99,0.27
353,westminster,39.8367,-105.0372,57.6,24,75,9.22
354,bonavista,48.6499,-53.1147,31.91,96,100,38.52
355,fasa,28.9383,53.6482,58.24,25,0,0.0
356,arman,59.7,150.1667,23.02,59,0,3.65
357,fort nelson,58.8053,-122.7002,18.99,42,75,12.66
358,mahibadhoo,3.7833,72.9667,84.25,70,46,10.4
359,alem paraiba,-21.8878,-42.7044,69.24,95,3,1.83
360,mehamn,71.0357,27.8492,30.85,99,100,5.88
361,bardiyah,31.7561,25.0865,56.34,69,3,9.66
362,dong hoi,17.4833,106.6,79.21,75,39,3.4
363,mana,5.6592,-53.7767,76.71,89,93,9.98
364,meulaboh,4.1363,96.1285,79.52,80,30,3.6
365,houma,29.5958,-90.7195,70.12,87,0,10.36
366,muriwai beach,-36.8167,174.45,69.51,72,100,9.42
367,cabatuan,10.8794,122.486,75.36,94,100,2.42
368,harper,4.375,-7.7169,79.68,87,100,6.29
369,thompson,55.7435,-97.8558,30.36,64,100,6.91
370,vanimo,-2.6741,141.3028,87.06,63,74,9.15
371,sao jose da coroa grande,-8.8978,-35.1478,77.47,75,100,3.51
372,ludvika,60.1496,15.1878,31.39,92,96,3.11
373,panjab,34.388,67.0233,48.16,32,37,1.25
374,baruun-urt,46.6806,113.2792,37.58,29,100,1.48
375,babusnica,43.0597,22.4117,32.97,77,4,2.06
376,porto novo,6.4965,2.6036,84.02,87,33,5.59
377,guanica,17.9716,-66.908,75.72,83,80,3.58
378,bethanien,-26.502,17.1583,64.98,37,0,5.91
379,beringovskiy,63.05,179.3167,27.41,87,100,12.44
380,povrly,50.6728,14.1603,40.6,72,18,3.06
381,nuevo laredo,27.4763,-99.5164,84.27,49,100,17.29
382,podor,16.6527,-14.9587,75.29,43,18,11.48
383,nouadhibou,20.931,-17.0347,64.38,82,97,20.71
384,lewistown,40.5992,-77.5714,51.13,100,75,0.0
385,mount isa,-20.7333,139.5,92.97,26,74,17.27
386,ouegoa,-20.35,164.4333,84.22,64,33,4.29
387,cristalina,-16.7686,-47.6136,65.66,88,88,1.3
388,port hardy,50.6996,-127.4199,48.38,40,20,12.66
389,floro,61.5996,5.0328,35.56,75,100,6.91
390,hovd,48.0056,91.6419,32.25,31,8,1.23
391,awjilah,29.1081,21.2869,58.19,46,0,10.89
392,nokaneng,-19.6667,22.2667,72.03,61,98,4.32
393,marsa matruh,31.3525,27.2453,59.2,63,20,10.36
394,skibbereen,51.55,-9.2667,52.11,97,84,9.24
395,sorland,67.667,12.6934,39.74,76,45,4.45
396,rundu,-17.9333,19.7667,67.39,70,100,3.27
397,kilindoni,-7.9139,39.6668,81.86,78,100,15.86
398,matay,28.419,30.7792,56.57,66,0,16.24
399,blagoyevo,63.3667,47.9167,33.24,100,100,1.19
400,vanavara,60.34,102.2797,28.85,74,78,1.81
401,igarka,67.4667,86.5833,14.16,91,100,12.17
402,fukuma,33.7667,130.4667,72.55,71,3,5.3
403,broome,42.2506,-75.833,49.66,74,100,7.0
404,mocuba,-16.8392,36.9856,69.69,98,21,2.39
405,henties bay,-22.116,14.2845,62.94,83,0,4.0
406,le passage,44.2014,0.6028,57.24,62,0,14.97
407,khawhai,23.3667,93.1167,66.49,65,0,2.1
408,tulsipur,28.131,82.2973,82.31,34,88,3.15
409,thunder bay,48.4001,-89.3168,44.51,45,40,8.05
410,soyo,-6.1349,12.3689,77.09,88,97,4.34
411,barrhead,55.7992,-4.3929,43.86,86,75,14.97
412,el sauzal,31.9,-116.6833,60.42,77,56,10.18
413,carberry,49.8689,-99.3602,28.63,71,32,8.32
414,santa paula,34.3542,-119.0593,61.97,70,13,3.0
415,sidi ali,36.0998,0.4206,56.95,89,94,11.72
416,boddam,57.4667,-1.7833,42.69,86,100,23.98
417,matam,15.6175,-13.3303,86.95,15,4,11.81
418,rudbar,30.15,62.6,72.43,15,17,7.09
419,kysyl-syr,63.8986,122.7617,22.32,91,100,1.92
420,domanivka,47.6319,30.9885,41.79,61,100,20.62
421,kamariotissa,40.4833,25.4667,52.45,57,100,6.26
422,rovaniemi,66.5,25.7167,29.61,100,75,4.61
423,san carlos de bariloche,-41.1456,-71.3082,44.35,81,75,20.71
424,paamiut,61.994,-49.6678,26.13,74,100,6.29
425,petropavlovsk-kamchatskiy,53.0452,158.6483,41.59,42,20,13.42
426,camana,-16.6228,-72.7111,67.1,80,89,6.62
427,narathiwat,6.3333,101.75,78.93,76,53,0.89
428,whitianga,-36.8333,175.7,65.7,83,100,9.48
429,port lincoln,-34.7333,135.8667,64.94,67,100,13.33
430,narsaq,60.9167,-46.05,30.52,51,58,13.06
431,hastings,50.8552,0.5729,50.25,71,100,8.41
432,tyukhtet,56.5389,89.3011,28.51,88,100,6.2
433,kaeo,-35.1,173.7833,65.32,90,100,17.07
434,saint-pierre,-21.3393,55.4781,72.55,92,100,20.71
435,da nang,16.0678,108.2208,80.58,78,40,3.44
436,touros,-5.1989,-35.4608,79.11,76,100,8.34
437,bada,51.392,109.8717,34.5,55,100,4.12
438,gorom-gorom,14.4439,-0.2361,84.06,11,35,4.27
439,canto do buriti,-8.11,-42.9444,74.71,78,48,2.13
440,kangaatsiaq,68.3065,-53.4641,18.14,83,99,5.68
441,comodoro rivadavia,-45.8667,-67.5,51.66,66,100,18.41
442,bubaque,11.2833,-15.8333,74.75,75,9,11.77
443,leh,34.1667,77.5833,34.56,57,100,2.71
444,bischofsheim,49.9939,8.3672,45.1,73,0,8.05
445,tshikapa,-6.4167,20.8,70.07,91,100,1.63
446,moberly,39.4184,-92.4382,52.41,54,0,4.61
447,srednekolymsk,67.45,153.6833,15.39,70,17,6.4
448,galveston,29.3669,-94.9669,74.01,87,100,13.8
449,salcedo,12.8105,121.4674,73.47,87,100,2.64
450,erenhot,43.6475,111.9767,41.94,28,6,6.24
451,stephenville,32.2207,-98.2023,77.94,62,40,9.22
452,luocheng,29.3848,104.0286,68.27,65,100,3.8
453,wasilla,61.5814,-149.4394,43.52,72,55,1.12
454,panama city,8.9936,-79.5197,79.68,76,20,9.22
455,suez,29.9737,32.5263,55.85,74,0,8.57
456,baherden,38.4362,57.4316,64.74,49,15,7.83
457,kearney,40.6995,-99.0815,54.3,28,8,10.0
458,kawalu,-7.3817,108.2082,80.98,73,6,2.77
459,badou,7.5833,0.6,75.07,80,100,3.36
460,bara,10.3744,10.7288,87.62,32,96,3.0
461,egvekinot,66.3167,-179.1667,6.31,84,100,12.77
462,san miguel,13.4833,-88.1833,84.81,57,100,3.02
463,hambantota,6.1241,81.1185,75.54,100,20,1.14
464,kandrian,-6.2167,149.55,86.72,64,35,5.97
465,faanui,-16.4833,-151.75,81.84,73,21,12.77
466,nizwa,22.9333,57.5333,78.46,12,0,6.35
467,reserva,-24.6503,-50.8506,62.65,99,53,2.15
468,uptar,59.75,150.9167,16.83,54,0,4.0
469,ko samui,9.5357,99.9357,84.11,79,74,0.0
470,ponta delgada,37.7333,-25.6667,61.52,94,75,12.66
471,kismayo,-0.3582,42.5454,81.39,83,94,11.18
472,mukhen,48.1,136.1,36.97,83,100,4.94
473,mahajanga,-15.7167,46.3167,73.42,73,0,8.05
474,college,64.8569,-147.8028,39.6,46,54,4.0
475,henderson,36.0397,-114.9819,70.99,27,0,25.32
476,omboue,-1.5746,9.2618,77.43,91,100,4.81
477,constantine,36.365,6.6147,56.61,54,0,1.14
478,mwinilunga,-11.7358,24.4293,58.98,98,65,3.36
479,villaviciosa,43.4813,-5.4357,54.52,98,100,5.41
480,mitu,1.1983,-70.1733,70.57,99,97,1.16
481,lagoa,39.05,-27.9833,59.61,93,100,18.03
482,pitkyaranta,61.5734,31.4792,26.58,98,65,2.62
483,healdsburg,38.6105,-122.8692,51.44,50,6,11.01
484,chapais,49.7834,-74.8492,38.98,93,100,10.63
485,katsuura,35.1333,140.3,67.06,77,0,12.95
486,emerald,-23.5333,148.1667,86.14,48,40,5.75
487,clarence town,-32.5833,151.7833,72.16,72,43,8.19
488,luwuk,-0.9516,122.7875,86.68,59,80,3.85
489,alberton,46.8168,-64.0654,35.51,81,2,11.54
490,katobu,-4.9408,122.5276,87.64,56,59,3.44
491,southern pines,35.174,-79.3923,68.56,56,100,8.25
492,luleburgaz,41.4039,27.3592,37.78,83,12,6.69
493,albemarle,35.3501,-80.2001,69.93,37,0,6.91
494,surt,31.2089,16.5887,57.45,71,9,14.79
495,sinnamary,5.3833,-52.95,77.13,89,41,10.56
496,macusani,-14.0833,-70.4333,34.92,91,63,1.81
497,yarmouth,41.7057,-70.2286,45.5,78,15,5.01
498,mazyr,52.0495,29.2456,35.01,72,93,10.04
499,roma,43.2128,-75.4557,54.91,81,100,6.38
500,solano,38.2333,-121.9511,55.67,33,86,13.91
501,pandan,14.0453,124.1694,80.69,86,100,12.26
502,pocos de caldas,-21.7878,-46.5614,62.06,89,100,2.48
503,mitsamiouli,-11.3847,43.2844,81.93,76,59,8.79
504,kuningan,-6.9758,108.4831,79.29,71,8,1.68
505,mandalgovi,45.7625,106.2708,32.11,26,100,12.66
506,araguari,-18.6472,-48.1872,73.69,90,100,1.74
507,bayevo,53.2833,80.7667,36.36,59,2,13.4
508,damaturu,11.747,11.9608,83.89,16,82,7.54
509,inhambane,-23.865,35.3833,74.12,90,99,3.09
510,sakakah,29.9697,40.2064,71.17,26,61,8.23
511,makakilo city,21.3469,-158.0858,78.94,59,100,17.27
512,moron,-34.6534,-58.6198,59.38,89,0,6.6
513,ballina,-28.8667,153.5667,77.41,72,40,17.27
514,hanmer springs,-42.5167,172.8167,57.74,80,100,3.33
515,hoa binh,20.8133,105.3383,78.57,76,99,2.53
516,avera,33.194,-82.5271,66.02,53,100,5.82
517,talnakh,69.4865,88.3972,15.21,87,100,11.32
518,sonoita,31.85,-112.8333,69.93,33,0,20.47
519,ridgecrest,35.6225,-117.6709,61.29,32,40,36.82
520,bagotville,-28.9833,153.4167,77.45,77,69,14.81
521,careiro da varzea,-3.2003,-59.8119,79.41,95,100,2.75
522,mandiana,10.6333,-8.6833,86.88,38,97,4.88
523,camalu,30.85,-116.0667,59.52,76,0,12.53
524,bulgan,48.8125,103.5347,29.17,50,29,1.43
525,votice,49.6401,14.6381,30.38,83,39,3.76
526,beri,25.9031,79.8902,90.9,11,100,1.52
527,nynashamn,58.9034,17.9479,30.11,81,6,7.81
528,chanika,-5.4167,38.0167,66.49,98,100,2.95
529,garmsar,35.2182,52.3409,64.65,21,7,3.44
530,ostrovnoy,68.0531,39.5131,30.79,86,61,24.54
531,kilimatinde,-5.85,34.95,62.06,94,73,1.81
532,opuwo,-18.0607,13.84,66.79,77,100,2.71
533,ukiah,39.1502,-123.2078,44.74,73,10,1.99
534,camacha,33.0833,-16.3333,58.42,77,40,16.11
535,fare,-16.7,-151.0167,82.04,72,3,14.27
536,manadhoo,5.7667,73.3833,84.36,73,12,10.54
537,elko,41.0002,-115.5012,25.18,85,100,18.01
538,shelburne,44.0787,-80.2041,48.47,88,100,10.22
539,dinguiraye,11.3,-10.7167,85.32,35,97,3.91
540,sao desiderio,-12.3633,-44.9733,75.06,46,7,2.39
541,qingdao,36.0986,120.3719,51.4,87,100,15.66
542,cascais,38.6979,-9.4215,56.19,87,29,15.01
543,trairi,-3.2778,-39.2689,76.69,88,92,4.9
544,atyrau,47.1167,51.8833,48.22,87,4,8.95
545,ust-nera,64.5667,143.2,12.51,81,34,2.82
546,acapulco,16.8634,-99.8901,79.18,79,18,6.31
547,jiazi,22.8779,116.067,78.84,65,0,1.79
548,choya,52.0108,86.5467,36.93,60,3,2.84
549,zheshart,62.0731,49.5733,37.58,99,100,5.86
550,sangar,63.9242,127.4739,22.23,76,53,2.62
551,kupang,-10.1667,123.5833,84.56,64,46,3.67
552,taoudenni,22.6783,-3.9836,80.02,6,100,7.58
553,eureka,40.8021,-124.1637,45.03,75,37,14.0
554,ust-tsilma,65.441,52.1498,32.94,99,100,2.66
555,langnau,46.9394,7.7874,38.16,76,51,4.09
556,port blair,11.6667,92.75,82.44,83,40,0.0
557,maragogi,-9.0122,-35.2225,76.91,76,100,3.65
558,keti bandar,24.1447,67.4497,79.66,81,51,14.14
559,ayorou,14.7308,0.9174,85.91,12,35,6.64
560,antalaha,-14.9003,50.2788,75.81,81,40,9.44
561,tamale,9.4008,-0.8393,84.13,58,75,10.38
562,adrar,20.5022,-10.0711,78.48,6,14,11.72
